[
    {
      "Firma": "K & K GASTRO GmbH",
      "Adresse": "Ritterstr. 21, 33602 Bielefeld",
      "latitude": 52.0227135,
      "longitude": 8.5308699
    },
    {
      "Firma": "SKY Deutschland Interaction Center GmbH - @Friends -",
      "Adresse": "Alfred-Bozi-Str. 10-11, 33602 Bielefeld",
      "latitude": 52.0222497,
      "longitude": 8.5279691
    },
    {
      "Firma": "Adsolvix GmbH & Co. KG",
      "Adresse": "Am Lenkwerk 11, 33609 Bielefeld",
      "latitude": 52.02873835,
      "longitude": 8.5570922278
    },
    {
      "Firma": "AER Kooperation AG",
      "Adresse": "Amtsstr. 22, 33739 Bielefeld",
      "latitude": 52.09552885,
      "longitude": 8.5172204955
    },
    {
      "Firma": "A.I. Management GmbH",
      "Adresse": "Werner-Bock-Str. 36, 33602 Bielefeld",
      "latitude": 52.0251254,
      "longitude": 8.5489956
    }
  ]
  